rosbagTimestamp,header,seq,stamp,secs,nsecs,frame_id,child_frame_id,pose,pose,position,x,y,z,orientation,x,y,z,w,covariance,twist,twist,linear,x,y,z,angular,x,y,z,covariance
1537750000000,,7126,,1537,660000000,"""odom""","""base_link""",,,,0.0021476654144727105,-5.7992669651125376e-08,0.0,,0.0,0.0,-1.436732884629767e-05,0.9999999998967899,"[11.936884311243736, 6.951035862585252e-10, 0.0, 0.0, 0.0, 4.6037693157488744e-07, 6.951035862585298e-10, 11.93690977679728, 0.0, 0.0, 0.0, 0.016757092699703255, 0.0, 0.0, 9.99168052944964e-07, 7.077257451366855e-29, -2.8823259092286086e-19, 0.0, 0.0, 0.0, 7.077257451366856e-29, 9.983388669411188e-07, 1.1195100467151972e-37, 0.0, 0.0, 0.0, -2.8823259092286086e-19, -6.291191643622781e-38, 9.983388669411188e-07, 0.0, 4.6037693157488664e-07, 0.016757092699703182, 0.0, 0.0, 0.0, 14.459512719249243]",,,,1.0445745202976354e-05,0.0,0.0,,0.0,0.0,-1.2275872571611308e-08,"[0.0005039082170564227, 0.0, 0.0, 0.0, 0.0, 0.0, 0.0, 0.0005039082170564227, 0.0, 0.0, 0.0, 0.0, 0.0, 0.0, 9.98753115885699e-07, 1.7370257257761425e-37, -7.039277681812623e-28, 0.0, 0.0, 0.0, 1.7370257257761427e-37, 9.95049383604643e-07, 1.085717592124301e-45, 0.0, 0.0, 0.0, -7.0392776818126235e-28, -6.122630917261281e-46, 9.95049383604643e-07, 0.0, 0.0, 0.0, 0.0, 0.0, 0.0, 0.003181526091474759]"
1537750000000,,7127,,1537,700000000,"""odom""","""base_link""",,,,0.002148083252810389,-5.8004676092733126e-08,0.0,,0.0,0.0,-1.4367574363749077e-05,0.9999999998967865,"[11.93888725873382, 6.954972149851181e-10, 0.0, 0.0, 0.0, 4.6055054004293555e-07, 6.95497214985123e-10, 11.9389127382934, 0.0, 0.0, 0.0, 0.01676313447928271, 0.0, 0.0, 0.0024010007666952927, 2.0483259994581113e-22, -4.171445437411396e-13, 0.0, 0.0, 0.0, 2.0483259994581109e-22, 0.0012009999309579562, 4.1137768544005735e-32, 0.0, 0.0, 0.0, -4.171445437411396e-13, -4.1137768544005735e-32, 0.0012009999309579562, 0.0, 4.605505400429347e-07, 0.016763134479282633, 0.0, 0.0, 0.0, 14.46195758972462]",,,,1.0446171689587926e-05,0.0,0.0,,0.0,0.0,-1.2275872571611308e-08,"[0.0015549435683448005, 0.0, 0.0, 0.0, 0.0, 0.0, 0.0, 0.0015549435683448005, 0.0, 0.0, 0.0, 0.0, 0.0, 0.0, 0.0016010003478229434, 1.7388621857501599e-37, -7.0467198905261555e-28, 0.0, 0.0, 0.0, 1.73886218575016e-37, 0.00040099504938324084, 1.085717592124301e-45, 0.0, 0.0, 0.0, -7.046719890526156e-28, -6.122630917261281e-46, 0.00040099504938324084, 0.0, 0.0, 0.0, 0.0, 0.0, 0.0, 0.0039815260914740315]"
1537750000000,,7128,,1537,740000000,"""odom""","""base_link""",,,,0.0021485011028035132,-5.801668307371999e-08,0.0,,0.0,0.0,-1.4367819655008005e-05,0.9999999998967829,"[11.940888129323652, 6.958910056354703e-10, 0.0, 0.0, 0.0, 4.6072418551547127e-07, 6.958910056354753e-10, 11.940913622894794, 0.0, 0.0, 0.0, 0.01676917744346932, 0.0, 0.0, 0.002400500695966424, 1.0252823862052247e-22, -2.0883936710036185e-13, 0.0, 0.0, 0.0, 1.0252823862052248e-22, 0.001200500590931028, 2.1242230762369898e-32, 0.0, 0.0, 0.0, -2.0883936710036188e-13, -2.1242230762369898e-32, 0.001200500590931028, 0.0, 4.607241855154705e-07, 0.01676917744346924, 0.0, 0.0, 0.0, 14.464381558072162]",,,,1.0446526101010634e-05,0.0,0.0,,0.0,0.0,-1.2273574478095221e-08,"[0.001422874889536278, 0.0, 0.0, 0.0, 0.0, 0.0, 0.0, 0.001422874889536278, 0.0, 0.0, 0.0, 0.0, 0.0, 0.0, 0.0016005006432307455, 4.4016596518849807e-38, -8.919738858044945e-29, 0.0, 0.0, 0.0, 4.401659651884981e-38, 0.0004004993773269502, 1.3037425660903513e-46, 0.0, 0.0, 0.0, -8.919738858044946e-29, -9.926079806176587e-48, 0.0004004993773269502, 0.0, 0.0, 0.0, 0.0, 0.0, 0.0, 0.003946369321638607]"
1537780000000,,7129,,1537,780000000,"""odom""","""base_link""",,,,0.0021489189711652672,-5.802869078752033e-08,0.0,,0.0,0.0,-1.4368064902966823e-05,0.9999999998967793,"[11.942889261349114, 6.962849602642198e-10, 0.0, 0.0, 0.0, 4.6089786986107676e-07, 6.962849602642247e-10, 11.942914768937417, 0.0, 0.0, 0.0, 0.01677522165727047, 0.0, 0.0, 0.00240050069594456, 1.0251325032620917e-22, -2.088474810804947e-13, 0.0, 0.0, 0.0, 1.0251325032620917e-22, 0.0012005005908424658, 3.1585242776838266e-33, 0.0, 0.0, 0.0, -2.0884748108049472e-13, -3.1585242776838266e-33, 0.0012005005908424658, 0.0, 4.6089786986107596e-07, 0.01677522165727039, 0.0, 0.0, 0.0, 14.466805538269076]",,,,1.0446934490656945e-05,0.0,0.0,,0.0,0.0,-1.2271304517550024e-08,"[0.0014140896334230704, 0.0, 0.0, 0.0, 0.0, 0.0, 0.0, 0.0014140896334230704, 0.0, 0.0, 0.0, 0.0, 0.0, 0.0, 0.0016005006431810602, 5.545847037288594e-39, -1.1268288272311847e-29, 0.0, 0.0, 0.0, 5.545847037288592e-39, 0.0004004993765572711, 1.2966257763190216e-47, 0.0, 0.0, 0.0, -1.1268288272311847e-29, -5.3010446413229644e-48, 0.0004004993765572711, 0.0, 0.0, 0.0, 0.0, 0.0, 0.0, 0.003924373795297985]"
1537820000000,,7130,,1537,820000000,"""odom""","""base_link""",,,,0.002149336856809359,-5.804069920291209e-08,0.0,,0.0,0.0,-1.4368310107324726e-05,0.9999999998967758,"[11.944890442446113, 6.966790793940793e-10, 0.0, 0.0, 0.0, 4.610715932912451e-07, 6.966790793940843e-10, 11.944915964057193, 0.0, 0.0, 0.0, 0.01678126712802182, 0.0, 0.0, 0.00240050069594456, 1.0249855866978299e-22, -2.088559026701447e-13, 0.0, 0.0, 0.0, 1.0249855866978299e-22, 0.0012005005908424656, -3.791590663327756e-33, 0.0, 0.0, 0.0, -2.0885590267014473e-13, 3.791590663327756e-33, 0.0012005005908424656, 0.0, 4.6107159329124433e-07, 0.016781267128021738, 0.0, 0.0, 0.0, 14.46922952584203]",,,,1.0447355707664724e-05,0.0,0.0,,0.0,0.0,-1.2269051120525663e-08,"[0.0014134653624779839, 0.0, 0.0, 0.0, 0.0, 0.0, 0.0, 0.0014134653624779839, 0.0, 0.0, 0.0, 0.0, 0.0, 0.0, 0.0016005006431810602, 5.54500312503382e-39, -1.1282598170008647e-29, 0.0, 0.0, 0.0, 5.545003125033819e-39, 0.0004004993765572699, 5.1794920656622866e-48, 0.0, 0.0, 0.0, -1.1282598170008656e-29, 2.484074386026426e-48, 0.0004004993765572699, 0.0, 0.0, 0.0, 0.0, 0.0, 0.0, 0.003910570926477998]"
1537860000000,,7131,,1537,860000000,"""odom""","""base_link""",,,,0.002149754759549057,-5.805270831451133e-08,0.0,,0.0,0.0,-1.4368555267793998e-05,0.9999999998967724,"[11.94689163577699, 6.970733631981094e-10, 0.0, 0.0, 0.0, 4.6124535586369574e-07, 6.970733631981144e-10, 11.946917171416471, 0.0, 0.0, 0.0, 0.016787313857707556, 0.0, 0.0, 0.00240050069594456, 1.0248397408334564e-22, -2.0886439194196296e-13, 0.0, 0.0, 0.0, 1.0248397408334564e-22, 0.0012005005908424656, 7.320476040538616e-33, 0.0, 0.0, 0.0, -2.0886439194196296e-13, -7.320476040538616e-33, 0.0012005005908424656, 0.0, 4.6124535586369495e-07, 0.016787313857707476, 0.0, 0.0, 0.0, 14.471653518028914]",,,,1.0447780352447564e-05,0.0,0.0,,0.0,0.0,-1.2266806745910396e-08,"[0.0014134237643416434, 0.0, 0.0, 0.0, 0.0, 0.0, 0.0, 0.0014134237643416434, 0.0, 0.0, 0.0, 0.0, 0.0, 0.0, 0.0016005006431810602, 5.5442084409407734e-39, -1.1283053168703672e-29, 0.0, 0.0, 0.0, 5.544208440940775e-39, 0.0004004993765572699, 2.2693626541196382e-48, 0.0, 0.0, 0.0, -1.1283053168703675e-29, 5.394198589811596e-48, 0.0004004993765572699, 0.0, 0.0, 0.0, 0.0, 0.0, 0.0, 0.003901892805098989]"
1537900000000,,7132,,1537,900000000,"""odom""","""base_link""",,,,0.002150172679340231,-5.806471812102994e-08,0.0,,0.0,0.0,-1.436880038421571e-05,0.9999999998967688,"[11.94889283246365, 6.974678117566525e-10, 0.0, 0.0, 0.0, 4.6141915759560723e-07, 6.974678117566574e-10, 11.94891838213716, 0.0, 0.0, 0.0, 0.016793361846901084, 0.0, 0.0, 0.0024005006959582024, 1.024694402745922e-22, -2.0887289970361042e-13, 0.0, 0.0, 0.0, 1.024694402745922e-22, 0.001200500590849287, -1.81110585622319e-32, 0.0, 0.0, 0.0, -2.0887289970361045e-13, 1.81110585622319e-32, 0.001200500590849287, 0.0, 4.614191575956065e-07, 0.016793361846901004, 0.0, 0.0, 0.0, 14.474077513110835]",,,,1.0448205933232063e-05,0.0,0.0,,0.0,0.0,-1.2264567545560702e-08,"[0.0014134238401482722, 0.0, 0.0, 0.0, 0.0, 0.0, 0.0, 0.0014134238401482722, 0.0, 0.0, 0.0, 0.0, 0.0, 0.0, 0.0016005006431901551, 5.543419551918758e-39, -1.1283511785881901e-29, 0.0, 0.0, 0.0, 5.543419551918759e-39, 0.00040049937655954365, 6.997703958055936e-48, 0.0, 0.0, 0.0, -1.1283511785881904e-29, 6.931818042059593e-49, 0.00040049937655954365, 0.0, 0.0, 0.0, 0.0, 0.0, 0.0, 0.0038964302189232808]"
1537940000000,,7133,,1537,920000000,"""odom""","""base_link""",,,,0.0021503816472701383,-5.807072335704079e-08,0.0,,0.0,0.0,-1.4368922749570908e-05,0.999999999896767,"[11.949892143364563, 6.976650982725989e-10, 0.0, 0.0, 0.0, 4.6150607622955907e-07, 6.976650982726036e-10, 11.949917700057197, 0.0, 0.0, 0.0, 0.01679638640819314, 0.0, 0.0, 9.991677070991742e-07, 3.544126169512684e-29, -1.4451269276774265e-19, 0.0, 0.0, 0.0, 3.5441261695126804e-29, 9.983374895846988e-07, -5.908956088389563e-38, 0.0, 0.0, 0.0, -1.4451269276774256e-19, 7.139703619115534e-38, 9.983374895846988e-07, 0.0, 4.6150607622955833e-07, 0.01679638640819306, 0.0, 0.0, 0.0, 14.475269661555405]",,,,1.0448470213361827e-05,0.0,0.0,,0.0,0.0,-1.226125836549085e-08,"[0.00046947659228629176, 0.0, 0.0, 0.0, 0.0, 0.0, 0.0, 0.00046947659228629176, 0.0, 0.0, 0.0, 0.0, 0.0, 0.0, 9.98752339431044e-07, 2.1915056785579284e-38, -8.924750758138451e-29, 0.0, 0.0, 0.0, 2.191505678557929e-38, 9.950372054846635e-07, -1.4519973838537566e-46, 0.0, 0.0, 0.0, -8.92475075813845e-29, 1.753235435839685e-46, 9.950372054846635e-07, 0.0, 0.0, 0.0, 0.0, 0.0, 0.0, 0.0031287047424463]"
1537960000000,,7134,,1537,960000000,"""odom""","""base_link""",,,,0.0021507995945907817,-5.808273426257195e-08,0.0,,0.0,0.0,-1.4369167974738191e-05,0.9999999998967635,"[11.951894822648402, 6.980597959758129e-10, 0.0, 0.0, 0.0, 4.6167993847612927e-07, 6.980597959758176e-10, 11.951920393383574, 0.0, 0.0, 0.0, 0.016802436348387746, 0.0, 0.0, 0.0024010007663473705, 2.0464172428448333e-22, -4.1725262493239153e-13, 0.0, 0.0, 0.0, 2.0464172428448333e-22, 0.0012009999295546144, -4.158511100073482e-33, 0.0, 0.0, 0.0, -4.172526249323915e-13, 4.158511100073482e-33, 0.0012009999295546144, 0.0, 4.616799384761285e-07, 0.016802436348387666, 0.0, 0.0, 0.0, 14.477713664099054]",,,,1.0448895827474034e-05,0.0,0.0,,0.0,0.0,-1.226125836549085e-08,"[0.0015187436709794618, 0.0, 0.0, 0.0, 0.0, 0.0, 0.0, 0.0015187436709794618, 0.0, 0.0, 0.0, 0.0, 0.0, 0.0, 0.001601000347034477, 2.1938314654916543e-38, -8.934222306397087e-29, 0.0, 0.0, 0.0, 2.1938314654916549e-38, 0.0004009950372051209, -1.4519973838537566e-46, 0.0, 0.0, 0.0, -8.934222306397086e-29, 1.753235435839685e-46, 0.0004009950372051209, 0.0, 0.0, 0.0, 0.0, 0.0, 0.0, 0.003928704742445573]"
1538000000000,,7135,,1537,980000000,"""odom""","""base_link""",,,,0.0021510085741021146,-5.808873998505001e-08,0.0,,0.0,0.0,-1.4369290304157702e-05,0.9999999998967617,"[11.952893844473612, 6.982572063789916e-10, 0.0, 0.0, 0.0, 4.6176688657656783e-07, 6.982572063789965e-10, 11.95291942223214, 0.0, 0.0, 0.0, 0.01680546185764345, 0.0, 0.0, 9.99167707099189e-07, 3.543385956571902e-29, -1.445217557219096e-19, 0.0, 0.0, 0.0, 3.5433859565719005e-29, 9.9833748958494e-07, 1.7008512751359059e-38, 0.0, 0.0, 0.0, -1.445217557219096e-19, -4.7028362486305405e-39, 9.9833748958494e-07, 0.0, 4.617668865765671e-07, 0.01680546185764337, 0.0, 0.0, 0.0, 14.478905549731435]",,,,1.0449116115498043e-05,0.0,0.0,,0.0,0.0,-1.2257916296209994e-08,"[0.0004714369895139364, 0.0, 0.0, 0.0, 0.0, 0.0, 0.0, 0.0004714369895139364, 0.0, 0.0, 0.0, 0.0, 0.0, 0.0, 9.987523394311206e-07, 2.1910875255415303e-38, -8.914358323409627e-29, 0.0, 0.0, 0.0, 2.1910875255415314e-38, 9.950372055036197e-07, 4.1442813463862225e-47, 0.0, 0.0, 0.0, -8.914358323409628e-29, -1.1169444297501532e-47, 9.950372055036197e-07, 0.0, 0.0, 0.0, 0.0, 0.0, 0.0, 0.0031449831985351367]"
1538000000000,,7136,,1538,0,"""odom""","""base_link""",,,,0.002151217559413946,-5.8094745925994986e-08,0.0,,0.0,0.0,-1.4369412798028831e-05,0.99999999989676,"[11.953894253061428, 6.984546588515098e-10, 0.0, 0.0, 0.0, 4.618538457653899e-07, 6.984546588515147e-10, 11.953919837844747, 0.0, 0.0, 0.0, 0.01680848772694392, 0.0, 0.0, 9.99168052944724e-07, 7.068686413278079e-29, -2.8833128556331745e-19, 0.0, 0.0, 0.0, 7.068686413278078e-29, 9.98338866937296e-07, 3.9150082812168703e-38, 0.0, 0.0, 0.0, -2.883312855633173e-19, 9.84638704482977e-39, 9.98338866937296e-07, 0.0, 4.618538457653892e-07, 0.016808487726943842, 0.0, 0.0, 0.0, 14.480117296785002]",,,,1.0449354035101765e-05,0.0,0.0,,0.0,0.0,-1.22568231801264e-08,"[0.0004973990114205268, 0.0, 0.0, 0.0, 0.0, 0.0, 0.0, 0.0004973990114205268, 0.0, 0.0, 0.0, 0.0, 0.0, 0.0, 9.98753115884486e-07, 1.7348785745257538e-37, -7.058915303216299e-28, 0.0, 0.0, 0.0, 1.7348785745257526e-37, 9.950493833061828e-07, 3.757244572714579e-46, 0.0, 0.0, 0.0, -7.058915303216295e-28, 9.770844233379753e-47, 9.950493833061828e-07, 0.0, 0.0, 0.0, 0.0, 0.0, 0.0, 0.003170354724180887]"
1538040000000,,7137,,1538,40000000,"""odom""","""base_link""",,,,0.0021516355430258433,-5.810675833474729e-08,0.0,,0.0,0.0,-1.4369657750257928e-05,0.9999999998967565,"[11.955895090092332, 6.988496886982701e-10, 0.0, 0.0, 0.0, 4.6202779403595116e-07, 6.988496886982752e-10, 11.9559206889295, 0.0, 0.0, 0.0, 0.016814540428316566, 0.0, 0.0, 9.99168052944964e-07, 7.067753525350071e-29, -2.8834468524629053e-19, 0.0, 0.0, 0.0, 7.067753525350073e-29, 9.98338866941119e-07, 2.985154472984917e-38, 0.0, 0.0, 0.0, -2.8834468524629053e-19, 1.914073556935359e-38, 9.98338866941119e-07, 0.0, 4.620277940359504e-07, 0.016814540428316486, 0.0, 0.0, 0.0, 14.482540879602825]",,,,1.0449799350331326e-05,0.0,0.0,,0.0,0.0,-1.2254609765759998e-08,"[0.0005057052393173541, 0.0, 0.0, 0.0, 0.0, 0.0, 0.0, 0.0005057052393173541, 0.0, 0.0, 0.0, 0.0, 0.0, 0.0, 9.98753115885699e-07, 1.7346931402427557e-37, -7.042014528495643e-28, 0.0, 0.0, 0.0, 1.7346931402427557e-37, 9.950493836046503e-07, 2.7574532760832627e-46, 0.0, 0.0, 0.0, -7.04201452849564e-28, 1.9698523274304454e-46, 9.950493836046503e-07, 0.0, 0.0, 0.0, 0.0, 0.0, 0.0, 0.0032068153693781]"
1538080000000,,7138,,1538,80000000,"""odom""","""base_link""",,,,0.0021520535435378576,-5.811877138334517e-08,0.0,,0.0,0.0,-1.4369902842453218e-05,0.9999999998967529,"[11.95789808306292, 6.992448831675648e-10, 0.0, 0.0, 0.0, 4.6220177468762884e-07, 6.992448831675698e-10, 11.957923695959593, 0.0, 0.0, 0.0, 0.016820594179029442, 0.0, 0.0, 0.0024010007666952927, 2.04557176646016e-22, -4.17306448797227e-13, 0.0, 0.0, 0.0, 2.04557176646016e-22, 0.0012009999309579562, 6.706371815998964e-32, 0.0, 0.0, 0.0, -4.1730644879722707e-13, -6.706371815998964e-32, 0.0012009999309579562, 0.0, 4.622017746876281e-07, 0.016820594179029365, 0.0, 0.0, 0.0, 14.484986207450149]",,,,1.0450226259037107e-05,0.0,0.0,,0.0,0.0,-1.2254609765759998e-08,"[0.0015568285299301762, 0.0, 0.0, 0.0, 0.0, 0.0, 0.0, 0.0015568285299301762, 0.0, 0.0, 0.0, 0.0, 0.0, 0.0, 0.0016010003478229434, 1.7365271341067134e-37, -7.04945963053288e-28, 0.0, 0.0, 0.0, 1.7365271341067134e-37, 0.00040099504938324084, 2.7574532760832627e-46, 0.0, 0.0, 0.0, -7.049459630532877e-28, 1.9698523274304454e-46, 0.00040099504938324084, 0.0, 0.0, 0.0, 0.0, 0.0, 0.0, 0.004006815369377373]"
1538120000000,,7139,,1538,120000000,"""odom""","""base_link""",,,,0.0021524715552013237,-5.8130784956612194e-08,0.0,,0.0,0.0,-1.4370147706745347e-05,0.9999999998967495,"[11.959898931080767, 6.996402397520985e-10, 0.0, 0.0, 0.0, 4.6237579225086095e-07, 6.996402397521037e-10, 11.959924558042475, 0.0, 0.0, 0.0, 0.0168266491108993, 0.0, 0.0, 0.002400500695966424, 1.0239019194472508e-22, -2.0892029843043426e-13, 0.0, 0.0, 0.0, 1.0239019194472509e-22, 0.001200500590931028, -4.753493718720425e-33, 0.0, 0.0, 0.0, -2.0892029843043426e-13, 4.753493718720425e-33, 0.001200500590931028, 0.0, 4.623757922508602e-07, 0.016826649110899226, 0.0, 0.0, 0.0, 14.487410157752011]",,,,1.0450574482820208e-05,0.0,0.0,,0.0,0.0,-1.2252300896520367e-08,"[0.001422987868785617, 0.0, 0.0, 0.0, 0.0, 0.0, 0.0, 0.001422987868785617, 0.0, 0.0, 0.0, 0.0, 0.0, 0.0, 0.0016005006432307455, 4.3957410646083514e-38, -8.923200849457082e-29, 0.0, 0.0, 0.0, 4.3957410646083514e-38, 0.0004004993773269502, 1.7487676667248908e-46, 0.0, 0.0, 0.0, -8.923200849457088e-29, -5.436247935549908e-47, 0.0004004993773269502, 0.0, 0.0, 0.0, 0.0, 0.0, 0.0, 0.003962141020082714]"
1538170000000,,7140,,1538,160000000,"""odom""","""base_link""",,,,0.002152889585390495,-5.8142799267015e-08,0.0,,0.0,0.0,-1.4370392528234347e-05,0.9999999998967459,"[11.961900058602147, 7.000357606963704e-10, 0.0, 0.0, 0.0, 4.62549848697078e-07, 7.000357606963758e-10, 11.9619256996345, 0.0, 0.0, 0.0, 0.01683270529250164, 0.0, 0.0, 0.0024005006959582024, 1.0237515083292474e-22, -2.0892838683350243e-13, 0.0, 0.0, 0.0, 1.0237515083292475e-22, 0.001200500590849287, -1.8353917692533827e-32, 0.0, 0.0, 0.0, -2.0892838683350243e-13, 1.8353917692533827e-32, 0.001200500590849287, 0.0, 4.625498486970773e-07, 0.016832705292501568, 0.0, 0.0, 0.0, 14.489834126726018]",,,,1.0450981575280324e-05,0.0,0.0,,0.0,0.0,-1.2250027819586318e-08,"[0.0014140936284928176, 0.0, 0.0, 0.0, 0.0, 0.0, 0.0, 0.0014140936284928176, 0.0, 0.0, 0.0, 0.0, 0.0, 0.0, 0.0016005006431901551, 5.538379965257328e-39, -1.1272655061853261e-29, 0.0, 0.0, 0.0, 5.5383799652573296e-39, 0.00040049937655954485, 1.814388226370743e-48, 0.0, 0.0, 0.0, -1.1272655061853262e-29, 5.847850925474005e-48, 0.00040049937655954485, 0.0, 0.0, 0.0, 0.0, 0.0, 0.0, 0.003934251308350089]"
1538210000000,,7141,,1538,200000000,"""odom""","""base_link""",,,,0.0021533076328947784,-5.815481427975504e-08,0.0,,0.0,0.0,-1.4370637306487676e-05,0.9999999998967424,"[11.963901238420869, 7.004314465670874e-10, 0.0, 0.0, 0.0, 4.6272394425614384e-07, 7.004314465670927e-10, 11.963926893529498, 0.0, 0.0, 0.0, 0.016838762731810092, 0.0, 0.0, 0.00240050069594456, 1.0236045065862992e-22, -2.0893680518295785e-13, 0.0, 0.0, 0.0, 1.0236045065862993e-22, 0.0012005005908424658, 8.149466661408904e-33, 0.0, 0.0, 0.0, -2.0893680518295788e-13, -8.149466661408904e-33, 0.0012005005908424658, 0.0, 4.6272394425614315e-07, 0.016838762731810022, 0.0, 0.0, 0.0, 14.492258107282586]",,,,1.0451402625547552e-05,0.0,0.0,,0.0,0.0,-1.22477753235498e-08,"[0.0014134618115766886, 0.0, 0.0, 0.0, 0.0, 0.0, 0.0, 0.0014134618115766886, 0.0, 0.0, 0.0, 0.0, 0.0, 0.0, 0.0016005006431810602, 5.5375332406482284e-39, -1.1286968953269562e-29, 0.0, 0.0, 0.0, 5.537533240648229e-39, 0.0004004993765572699, -4.0776193474212226e-48, 0.0, 0.0, 0.0, -1.1286968953269571e-29, 1.1741211916718881e-47, 0.0004004993765572699, 0.0, 0.0, 0.0, 0.0, 0.0, 0.0, 0.003916773336541288]"
1538250000000,,7142,,1538,240000000,"""odom""","""base_link""",,,,0.0021537256975098108,-5.8166829988941336e-08,0.0,,0.0,0.0,-1.4370882041254722e-05,0.9999999998967388,"[11.965902431267951, 7.008272975491298e-10, 0.0, 0.0, 0.0, 4.628980789904123e-07, 7.008272975491351e-10, 11.965928100458495, 0.0, 0.0, 0.0, 0.016844821430969725, 0.0, 0.0, 0.00240050069594456, 1.0234588752445084e-22, -2.0894529717916608e-13, 0.0, 0.0, 0.0, 1.0234588752445084e-22, 0.0012005005908424656, -1.2897464324149636e-34, 0.0, 0.0, 0.0, -2.0894529717916608e-13, 1.2897464324149636e-34, 0.0012005005908424656, 0.0, 4.628980789904116e-07, 0.016844821430969655, 0.0, 0.0, 0.0, 14.494682095068521]",,,,1.0451827405637074e-05,0.0,0.0,,0.0,0.0,-1.2245535089427072e-08,"[0.0014134198609503403, 0.0, 0.0, 0.0, 0.0, 0.0, 0.0, 0.0014134198609503403, 0.0, 0.0, 0.0, 0.0, 0.0, 0.0, 0.0016005006431810602, 5.5367380958841865e-39, -1.1287423777060803e-29, 0.0, 0.0, 0.0, 5.536738095884188e-39, 0.0004004993765572699, 7.320775840217694e-48, 0.0, 0.0, 0.0, -1.1287423777060809e-29, 3.4131400080398494e-49, 0.0004004993765572699, 0.0, 0.0, 0.0, 0.0, 0.0, 0.0, 0.0039057939429139243]"
1538300000000,,7143,,1538,260000000,"""odom""","""base_link""",,,,0.0021539347378527964,-5.8172838176225114e-08,0.0,,0.0,0.0,-1.4371004215309327e-05,0.9999999998967372,"[11.966901748268924, 7.010252854208456e-10, 0.0, 0.0, 0.0, 4.629851641229266e-07, 7.010252854208509e-10, 11.96692742450254, 0.0, 0.0, 0.0, 0.01684785134706076, 0.0, 0.0, 9.991677070991742e-07, 3.53985224189888e-29, -1.4456277949172905e-19, 0.0, 0.0, 0.0, 3.539852241898878e-29, 9.983374895846988e-07, -6.572584108733866e-38, 0.0, 0.0, 0.0, -1.4456277949172898e-19, 7.802273509108349e-38, 9.983374895846988e-07, 0.0, 4.6298516412292584e-07, 0.01684785134706069, 0.0, 0.0, 0.0, 14.495873993386136]",,,,1.0452091542023998e-05,0.0,0.0,,0.0,0.0,-1.2242228787229274e-08,"[0.0004694758760705499, 0.0, 0.0, 0.0, 0.0, 0.0, 0.0, 0.0004694758760705499, 0.0, 0.0, 0.0, 0.0, 0.0, 0.0, 9.98752339431044e-07, 2.1888629011331437e-38, -8.927843991814532e-29, 0.0, 0.0, 0.0, 2.1888629011331437e-38, 9.950372054846635e-07, -1.6201724321448368e-46, 0.0, 0.0, 0.0, -8.927843991814529e-29, 1.9216955877491967e-46, 9.950372054846635e-07, 0.0, 0.0, 0.0, 0.0, 0.0, 0.0, 0.0031334353254113237]"
1538300000000,,7144,,1538,300000000,"""odom""","""base_link""",,,,0.002154352830030117,-5.8184854985114175e-08,0.0,,0.0,0.0,-1.4371249059885046e-05,0.9999999998967336,"[11.968904419233022, 7.014213861352204e-10, 0.0, 0.0, 0.0, 4.6315935943041696e-07, 7.014213861352256e-10, 11.968930109557082, 0.0, 0.0, 0.0, 0.016853911998943608, 0.0, 0.0, 0.0024010007663473705, 2.043949354217434e-22, -4.173972408345591e-13, 0.0, 0.0, 0.0, 2.0439493542174342e-22, 0.0012009999295546144, -8.656772136489863e-32, 0.0, 0.0, 0.0, -4.173972408345591e-13, 8.656772136489863e-32, 0.0012009999295546144, 0.0, 4.631593594304162e-07, 0.016853911998943538, 0.0, 0.0, 0.0, 14.498318238176243]",,,,1.0452517332678792e-05,0.0,0.0,,0.0,0.0,-1.2242228787229274e-08,"[0.0015187359695882697, 0.0, 0.0, 0.0, 0.0, 0.0, 0.0, 0.0015187359695882697, 0.0, 0.0, 0.0, 0.0, 0.0, 0.0, 0.001601000347034477, 2.1911858833571873e-38, -8.937318822821655e-29, 0.0, 0.0, 0.0, 2.1911858833571873e-38, 0.0004009950372051209, -1.6201724321448368e-46, 0.0, 0.0, 0.0, -8.937318822821651e-29, 1.9216955877491967e-46, 0.0004009950372051209, 0.0, 0.0, 0.0, 0.0, 0.0, 0.0, 0.003933435325410596]"
1538340000000,,7145,,1538,320000000,"""odom""","""base_link""",,,,0.002154561881972065,-5.8190863659233223e-08,0.0,,0.0,0.0,-1.4371371198713148e-05,0.9999999998967318,"[11.969903449658746, 7.01619498189857e-10, 0.0, 0.0, 0.0, 4.6324647405516423e-07, 7.016194981898624e-10, 11.96992914703012, 0.0, 0.0, 0.0, 0.01685694286374029, 0.0, 0.0, 9.99167707099189e-07, 3.539113433150077e-29, -1.4457184595887944e-19, 0.0, 0.0, 0.0, 3.539113433150078e-29, 9.9833748958494e-07, -3.9456226543528956e-38, 0.0, 0.0, 0.0, -1.4457184595887944e-19, 5.175132509805255e-38, 9.9833748958494e-07, 0.0, 4.6324647405516343e-07, 0.01685694286374022, 0.0, 0.0, 0.0, 14.499509943251157]",,,,1.0452737730648593e-05,0.0,0.0,,0.0,0.0,-1.2238894799354873e-08,"[0.0004714362608726425, 0.0, 0.0, 0.0, 0.0, 0.0, 0.0, 0.0004714362608726425, 0.0, 0.0, 0.0, 0.0, 0.0, 0.0, 9.987523394311206e-07, 2.1884455686920197e-38, -8.917447978102757e-29, 0.0, 0.0, 0.0, 2.1884455686920202e-38, 9.950372055036197e-07, -9.73522080770676e-47, 0.0, 0.0, 0.0, -8.917447978102758e-29, 1.2762557302663702e-46, 9.950372055036197e-07, 0.0, 0.0, 0.0, 0.0, 0.0, 0.0, 0.0031473628684842644]"
1538340000000,,7146,,1538,340000000,"""odom""","""base_link""",,,,0.0021547709397154633,-5.819687255181167e-08,0.0,,0.0,0.0,-1.437149350230246e-05,0.99999999989673,"[11.970903858726164, 7.018176524155637e-10, 0.0, 0.0, 0.0, 4.6333359978916756e-07, 7.018176524155693e-10, 11.97092956314629, 0.0, 0.0, 0.0, 0.016859974089250305, 0.0, 0.0, 9.99168052944724e-07, 7.060163597493688e-29, -2.8843122005206684e-19, 0.0, 0.0, 0.0, 7.060163597493686e-29, 9.98338866937296e-07, 2.620364212209082e-39, 0.0, 0.0, 0.0, -2.884312200520669e-19, 4.633399141219035e-38, 9.98338866937296e-07, 0.0, 4.633335997891667e-07, 0.016859974089250235, 0.0, 0.0, 0.0, 14.500721705044802]",,,,1.0452975768411588e-05,0.0,0.0,,0.0,0.0,-1.22378043560244e-08,"[0.0004973982196903292, 0.0, 0.0, 0.0, 0.0, 0.0, 0.0, 0.0004973982196903292, 0.0, 0.0, 0.0, 0.0, 0.0, 0.0, 9.98753115884486e-07, 1.7327868067437022e-37, -7.061361895477557e-28, 0.0, 0.0, 0.0, 1.7327868067437016e-37, 9.950493833061828e-07, 2.3518342490810893e-47, 0.0, 0.0, 0.0, -7.061361895477556e-28, 4.486895194541738e-46, 9.950493833061828e-07, 0.0, 0.0, 0.0, 0.0, 0.0, 0.0, 0.003172257875282776]"
1538380000000,,7147,,1538,360000000,"""odom""","""base_link""",,,,0.002154980001811354,-5.820288162063191e-08,0.0,,0.0,0.0,-1.437161579405006e-05,0.9999999998967283,"[11.971904276057149, 7.020158484502687e-10, 0.0, 0.0, 0.0, 4.6342073552893726e-07, 7.020158484502748e-10, 11.971929987527457, 0.0, 0.0, 0.0, 0.016863005637075695, 0.0, 0.0, 9.99168052944964e-07, 7.059714883966172e-29, -2.884383891366186e-19, 0.0, 0.0, 0.0, 7.059714883966177e-29, 9.98338866941119e-07, -7.074808383236899e-38, 0.0, 0.0, 0.0, -2.884383891366187e-19, 1.197005448473136e-37, 9.98338866941119e-07, 0.0, 4.6342073552893636e-07, 0.016863005637075622, 0.0, 0.0, 0.0, 14.501933495670977]",,,,1.0453201728530659e-05,0.0,0.0,,0.0,0.0,-1.223670355718965e-08,"[0.0005040358799614411, 0.0, 0.0, 0.0, 0.0, 0.0, 0.0, 0.0005040358799614411, 0.0, 0.0, 0.0, 0.0, 0.0, 0.0, 9.98753115885699e-07, 1.732720118558538e-37, -7.0443037296156165e-28, 0.0, 0.0, 0.0, 1.732720118558539e-37, 9.950493836046431e-07, -6.929381403523111e-46, 0.0, 0.0, 0.0, -7.04430372961562e-28, 1.16638186946581e-45, 9.950493836046431e-07, 0.0, 0.0, 0.0, 0.0, 0.0, 0.0, 0.003192151587080911]"
1538400000000,,7148,,1538,400000000,"""odom""","""base_link""",,,,0.002155398138419026,-5.8214900217985415e-08,0.0,,0.0,0.0,-1.437186052812118e-05,0.9999999998967248,"[11.973907231750815, 7.024123641777113e-10, 0.0, 0.0, 0.0, 4.635950296115445e-07, 7.024123641777174e-10, 11.973932957325738, 0.0, 0.0, 0.0, 0.016869069467515024, 0.0, 0.0, 0.002401000766708935, 2.0432478539548624e-22, -4.174423184766246e-13, 0.0, 0.0, 0.0, 2.0432478539548624e-22, 0.0012009999309647774, 3.8503099994729125e-32, 0.0, 0.0, 0.0, -4.174423184766246e-13, -3.8503099994729125e-32, 0.0012009999309647774, 0.0, 4.635950296115436e-07, 0.01686906946751495, 0.0, 0.0, 0.0, 14.50437864236283]",,,,1.0453628663608916e-05,0.0,0.0,,0.0,0.0,-1.223670355718965e-08,"[0.0015550723815187413, 0.0, 0.0, 0.0, 0.0, 0.0, 0.0, 0.0015550723815187413, 0.0, 0.0, 0.0, 0.0, 0.0, 0.0, 0.0016010003478320383, 1.7345520264553168e-37, -7.0517512520699855e-28, 0.0, 0.0, 0.0, 1.7345520264553179e-37, 0.0004009950493855146, -6.929381403523111e-46, 0.0, 0.0, 0.0, -7.051751252069989e-28, 1.16638186946581e-45, 0.0004009950493855146, 0.0, 0.0, 0.0, 0.0, 0.0, 0.0, 0.003992151587084731]"
1538440000000,,7149,,1538,440000000,"""odom""","""base_link""",,,,0.0021558162865882987,-5.8226919351609676e-08,0.0,,0.0,0.0,-1.4372105035843274e-05,0.9999999998967213,"[11.97590809700774, 7.028090425701716e-10, 0.0, 0.0, 0.0, 4.6376936071795586e-07, 7.028090425701778e-10, 11.975933836692828, 0.0, 0.0, 0.0, 0.016875134482834432, 0.0, 0.0, 0.002400500695966424, 1.0227401588548767e-22, -2.0898842036865793e-13, 0.0, 0.0, 0.0, 1.0227401588548767e-22, 0.001200500590931028, 1.0515546529425003e-32, 0.0, 0.0, 0.0, -2.0898842036865793e-13, -1.0515546529425003e-32, 0.001200500590931028, 0.0, 4.6376936071795496e-07, 0.01687513448283436, 0.0, 0.0, 0.0, 14.50680260056002]",,,,1.0453982072623742e-05,0.0,0.0,,0.0,0.0,-1.2234409706852868e-08,"[0.0014228783734669798, 0.0, 0.0, 0.0, 0.0, 0.0, 0.0, 0.0014228783734669798, 0.0, 0.0, 0.0, 0.0, 0.0, 0.0, 0.0016005006432307455, 4.390747195439192e-38, -8.926106130206271e-29, 0.0, 0.0, 0.0, 4.390747195439193e-38, 0.0004004993773269502, 1.2521318927654279e-46, 0.0, 0.0, 0.0, -8.926106130206276e-29, -4.2915925792216074e-48, 0.0004004993773269502, 0.0, 0.0, 0.0, 0.0, 0.0, 0.0, 0.003953001045283306]"
1538480000000,,7150,,1538,480000000,"""odom""","""base_link""",,,,0.0021562344531751783,-5.823893921910425e-08,0.0,,0.0,0.0,-1.4372349500657916e-05,0.9999999998967178,"[11.977909227768176, 7.032058857369727e-10, 0.0, 0.0, 0.0, 4.639437307534306e-07, 7.03205885736979e-10, 11.977934981569057, 0.0, 0.0, 0.0, 0.01688120074929798, 0.0, 0.0, 0.00240050069594456, 1.0225905998192637e-22, -2.0899653636081744e-13, 0.0, 0.0, 0.0, 1.0225905998192636e-22, 0.0012005005908424658, 2.9918027246370263e-32, 0.0, 0.0, 0.0, -2.0899653636081742e-13, -2.9918027246370263e-32, 0.0012005005908424658, 0.0, 4.639437307534297e-07, 0.016881200749297907, 0.0, 0.0, 0.0, 14.509226574430233]",,,,1.045439056107614e-05,0.0,0.0,,0.0,0.0,-1.2232146639918976e-08,"[0.0014140856095532337, 0.0, 0.0, 0.0, 0.0, 0.0, 0.0, 0.0014140856095532337, 0.0, 0.0, 0.0, 0.0, 0.0, 0.0, 0.0016005006431810602, 5.53209589497062e-39, -1.127633069850649e-29, 0.0, 0.0, 0.0, 5.53209589497062e-39, 0.0004004993765572711, 8.340404007170368e-48, 0.0, 0.0, 0.0, -1.1276330698506492e-29, -7.079415010372493e-49, 0.0004004993765572711, 0.0, 0.0, 0.0, 0.0, 0.0, 0.0, 0.003928529119877409]"
1538510000000,,7151,,1538,520000000,"""odom""","""base_link""",,,,0.002156652637067008,-5.825095978848006e-08,0.0,,0.0,0.0,-1.4372593922177542e-05,0.9999999998967143,"[11.979910408362025, 7.036028942138407e-10, 0.0, 0.0, 0.0, 4.6411813993406995e-07, 7.036028942138472e-10, 11.979936176284339, 0.0, 0.0, 0.0, 0.01688726827439946, 0.0, 0.0, 0.00240050069594456, 1.02244411804951e-22, -2.0900496512491667e-13, 0.0, 0.0, 0.0, 1.0224441180495099e-22, 0.0012005005908424656, 3.7054436322892337e-32, 0.0, 0.0, 0.0, -2.0900496512491664e-13, -3.7054436322892337e-32, 0.0012005005908424656, 0.0, 4.6411813993406905e-07, 0.01688726827439939, 0.0, 0.0, 0.0, 14.511650558042323]",,,,1.045481213638313e-05,0.0,0.0,,0.0,0.0,-1.2229901208713775e-08,"[0.0014134610153191051, 0.0, 0.0, 0.0, 0.0, 0.0, 0.0, 0.0014134610153191051, 0.0, 0.0, 0.0, 0.0, 0.0, 0.0, 0.0016005006431810602, 5.531253817028325e-39, -1.1290650605328111e-29, 0.0, 0.0, 0.0, 5.531253817028326e-39, 0.0004004993765572699, 1.6665713297577932e-47, 0.0, 0.0, 0.0, -1.129065060532811e-29, -9.018486052738901e-48, 0.0004004993765572699, 0.0, 0.0, 0.0, 0.0, 0.0, 0.0, 0.003913180978033068]"
1538560000000,,7152,,1538,540000000,"""odom""","""base_link""",,,,0.0021568617370539404,-5.825697040594292e-08,0.0,,0.0,0.0,-1.4372715939534202e-05,0.9999999998967125,"[11.980909724616534, 7.038014609388656e-10, 0.0, 0.0, 0.0, 4.642053622875431e-07, 7.03801460938872e-10, 11.980935499601683, 0.0, 0.0, 0.0, 0.016890302603307396, 0.0, 0.0, 9.991677070991742e-07, 3.536341061107447e-29, -1.446040501747506e-19, 0.0, 0.0, 0.0, 3.5363410611074436e-29, 9.983374895846988e-07, -2.7522179988989005e-38, 0.0, 0.0, 0.0, -1.4460405017475053e-19, 3.981038381066435e-38, 9.983374895846988e-07, 0.0, 4.642053622875422e-07, 0.016890302603307324, 0.0, 0.0, 0.0, 14.512842350332676]",,,,1.0455075344308853e-05,0.0,0.0,,0.0,0.0,-1.222659452141593e-08,"[0.00046947634223950375, 0.0, 0.0, 0.0, 0.0, 0.0, 0.0, 0.00046947634223950375, 0.0, 0.0, 0.0, 0.0, 0.0, 0.0, 9.98752339431044e-07, 2.1866917671878763e-38, -8.930392768345467e-29, 0.0, 0.0, 0.0, 2.1866917671878755e-38, 9.950372054846635e-07, -6.781843040047007e-47, 0.0, 0.0, 0.0, -8.930392768345469e-29, 9.777690575175622e-47, 9.950372054846635e-07, 0.0, 0.0, 0.0, 0.0, 0.0, 0.0, 0.003137162800008883]"
1538610000000,,7153,,1538,580000000,"""odom""","""base_link""",,,,0.0021572799485864978,-5.826899207706682e-08,0.0,,0.0,0.0,-1.4372960471424605e-05,0.999999999896709,"[11.982912391651382, 7.041987196027174e-10, 0.0, 0.0, 0.0, 4.6437983206935194e-07, 7.041987196027235e-10, 11.982938180766507, 0.0, 0.0, 0.0, 0.01689637208184452, 0.0, 0.0, 0.0024010007663473705, 2.0419218270980753e-22, -4.1751639768343244e-13, 0.0, 0.0, 0.0, 2.0419218270980755e-22, 0.0012009999295546144, -1.5137113488595086e-31, 0.0, 0.0, 0.0, -4.175163976834324e-13, 1.5137113488595086e-31, 0.0012009999295546144, 0.0, 4.6437983206935104e-07, 0.016896372081844448, 0.0, 0.0, 0.0, 14.515286696888861]",,,,1.0455501292220598e-05,0.0,0.0,,0.0,0.0,-1.222659452141593e-08,"[0.001518732700028834, 0.0, 0.0, 0.0, 0.0, 0.0, 0.0, 0.001518732700028834, 0.0, 0.0, 0.0, 0.0, 0.0, 0.0, 0.001601000347034477, 2.1890124452449759e-38, -8.939870304286386e-29, 0.0, 0.0, 0.0, 2.189012445244975e-38, 0.0004009950372051209, -6.781843040047007e-47, 0.0, 0.0, 0.0, -8.939870304286388e-29, 9.777690575175622e-47, 0.0004009950372051209, 0.0, 0.0, 0.0, 0.0, 0.0, 0.0, 0.003937162800008155]"
1538650000000,,7154,,1538,600000000,"""odom""","""base_link""",,,,0.002157489060201428,-5.8275003182087376e-08,0.0,,0.0,0.0,-1.4373082453886905e-05,0.9999999998967073,"[11.983911426582358, 7.043974107504291e-10, 0.0, 0.0, 0.0, 4.644670839329635e-07, 7.043974107504351e-10, 11.983937222764565, 0.0, 0.0, 0.0, 0.016899407359954387, 0.0, 0.0, 9.99167707099189e-07, 3.53560249908872e-29, -1.4461311657082616e-19, 0.0, 0.0, 0.0, 3.5356024990887197e-29, 9.9833748958494e-07, -4.012490418766204e-38, 0.0, 0.0, 0.0, -1.4461311657082616e-19, 5.241131191413098e-38, 9.9833748958494e-07, 0.0, 4.644670839329627e-07, 0.016899407359954315, 0.0, 0.0, 0.0, 14.516478325203126]",,,,1.0455721655307437e-05,0.0,0.0,,0.0,0.0,-1.2223264035110233e-08,"[0.00047143588235777547, 0.0, 0.0, 0.0, 0.0, 0.0, 0.0, 0.00047143588235777547, 0.0, 0.0, 0.0, 0.0, 0.0, 0.0, 9.987523394311206e-07, 2.186274548117749e-38, -8.919993622676329e-29, 0.0, 0.0, 0.0, 2.186274548117749e-38, 9.950372055036197e-07, -9.87754220625075e-47, 0.0, 0.0, 0.0, -8.919993622676334e-29, 1.2904879708275093e-46, 9.950372055036197e-07, 0.0, 0.0, 0.0, 0.0, 0.0, 0.0, 0.0031492368009935915]"
1538650000000,,7155,,1538,620000000,"""odom""","""base_link""",,,,0.002157698177622914,-5.828101450568391e-08,0.0,,0.0,0.0,-1.4373204601154674e-05,0.9999999998967055,"[11.984911835947367, 7.04596144152839e-10, 0.0, 0.0, 0.0, 4.6455434691758926e-07, 7.04596144152845e-10, 11.984937639198101, 0.0, 0.0, 0.0, 0.01690244299913913, 0.0, 0.0, 9.99168052944724e-07, 7.053159674476675e-29, -2.88513558231974e-19, 0.0, 0.0, 0.0, 7.053159674476673e-29, 9.98338866937296e-07, -1.4618310512131808e-38, 0.0, 0.0, 0.0, -2.8851355823197397e-19, 6.353806283376066e-38, 9.98338866937296e-07, 0.0, 4.645543469175884e-07, 0.016902442999139056, 0.0, 0.0, 0.0, 14.517690093033652]",,,,1.0455959781468463e-05,0.0,0.0,,0.0,0.0,-1.2222174630454581e-08,"[0.0004973977953380098, 0.0, 0.0, 0.0, 0.0, 0.0, 0.0, 0.0004973977953380098, 0.0, 0.0, 0.0, 0.0, 0.0, 0.0, 9.98753115884486e-07, 1.73106782314908e-37, -7.063377695591115e-28, 0.0, 0.0, 0.0, 1.73106782314908e-37, 9.950493833061828e-07, -1.4514820735652855e-46, 0.0, 0.0, 0.0, -7.06337769559111e-28, 6.189484328216713e-46, 9.950493833061828e-07, 0.0, 0.0, 0.0, 0.0, 0.0, 0.0, 0.00317375637071555]"
1538700000000,,7156,,1538,660000000,"""odom""","""base_link""",,,,0.002158116424549487,-5.829303760298651e-08,0.0,,0.0,0.0,-1.4373449044647258e-05,0.999999999896702,"[11.986914717079436, 7.049937353014911e-10, 0.0, 0.0, 0.0, 4.647288956954482e-07, 7.04993735301497e-10, 11.986940534471499, 0.0, 0.0, 0.0, 0.01690851501935744, 0.0, 0.0, 0.0024010007667089345, 2.0413602969721845e-22, -4.175524541973543e-13, 0.0, 0.0, 0.0, 2.0413602969721848e-22, 0.0012009999309647728, -4.6831211882050143e-32, 0.0, 0.0, 0.0, -4.175524541973543e-13, 4.6831211882050143e-32, 0.0012009999309647728, 0.0, 4.647288956954473e-07, 0.01690851501935737, 0.0, 0.0, 0.0, 14.520134965510593]",,,,1.0456386555713999e-05,0.0,0.0,,0.0,0.0,-1.2222174630454581e-08,"[0.0015480928702007826, 0.0, 0.0, 0.0, 0.0, 0.0, 0.0, 0.0015480928702007826, 0.0, 0.0, 0.0, 0.0, 0.0, 0.0, 0.001601000347832037, 1.7328979408556419e-37, -7.070845225901133e-28, 0.0, 0.0, 0.0, 1.7328979408556419e-37, 0.00040099504938521615, -1.4514820735652855e-46, 0.0, 0.0, 0.0, -7.070845225901128e-28, 6.189484328216713e-46, 0.00040099504938521615, 0.0, 0.0, 0.0, 0.0, 0.0, 0.0, 0.00397375637071937]"
1538700000000,,7157,,1538,700000000,"""odom""","""base_link""",,,,0.0021585346838340807,-5.830506125930395e-08,0.0,,0.0,0.0,-1.4373693263554522e-05,0.9999999998966985,"[11.988915618587772, 7.053914897843853e-10, 0.0, 0.0, 0.0, 4.64903481692528e-07, 7.053914897843917e-10, 11.988941450126736, 0.0, 0.0, 0.0, 0.01691458823110553, 0.0, 0.0, 0.002400500695966424, 1.0217973636846314e-22, -2.090437564932467e-13, 0.0, 0.0, 0.0, 1.0217973636846312e-22, 0.001200500590931028, 3.0844982739918615e-32, 0.0, 0.0, 0.0, -2.090437564932467e-13, -3.0844982739918615e-32, 0.001200500590931028, 0.0, 4.6490348169252706e-07, 0.016914588231105455, 0.0, 0.0, 0.0, 14.522558934181133]",,,,1.0456750073768616e-05,0.0,0.0,,0.0,0.0,-1.22198960356897e-08,"[0.0014224444201789083, 0.0, 0.0, 0.0, 0.0, 0.0, 0.0, 0.0014224444201789083, 0.0, 0.0, 0.0, 0.0, 0.0, 0.0, 0.0016005006432307455, 4.3866909673172893e-38, -8.928461976441952e-29, 0.0, 0.0, 0.0, 4.386690967317291e-38, 0.0004004993773269502, -2.0575235265043986e-47, 0.0, 0.0, 0.0, -8.928461976441958e-29, 1.410896925968224e-46, 0.0004004993773269502, 0.0, 0.0, 0.0, 0.0, 0.0, 0.0, 0.0039415152801667835]"
1538740000000,,7158,,1538,740000000,"""odom""","""base_link""",,,,0.0021589529613198644,-5.8317085643143107e-08,0.0,,0.0,0.0,-1.4373937439413453e-05,0.999999999896695,"[11.990916756189002, 7.057894094312342e-10, 0.0, 0.0, 0.0, 4.6507810667833844e-07, 7.057894094312405e-10, 11.990942601880505, 0.0, 0.0, 0.0, 0.016920662695917816, 0.0, 0.0, 0.00240050069594456, 1.0216487838872531e-22, -2.0905192233238027e-13, 0.0, 0.0, 0.0, 1.0216487838872529e-22, 0.0012005005908424658, 3.710458823835719e-33, 0.0, 0.0, 0.0, -2.090519223323803e-13, -3.710458823835719e-33, 0.0012005005908424658, 0.0, 4.650781066783375e-07, 0.016920662695917747, 0.0, 0.0, 0.0, 14.524982914567074]",,,,1.0457161085704624e-05,0.0,0.0,,0.0,0.0,-1.2217642927540913e-08,"[0.0014140567079439675, 0.0, 0.0, 0.0, 0.0, 0.0, 0.0, 0.0014140567079439675, 0.0, 0.0, 0.0, 0.0, 0.0, 0.0, 0.0016005006431810602, 5.526996228841298e-39, -1.1279316454521085e-29, 0.0, 0.0, 0.0, 5.5269962288412986e-39, 0.0004004993765572711, 1.7152147274193387e-47, 0.0, 0.0, 0.0, -1.127931645452108e-29, -9.462104209966202e-48, 0.0004004993765572711, 0.0, 0.0, 0.0, 0.0, 0.0, 0.0, 0.003921330491673704]"
1538790000000,,7159,,1538,780000000,"""odom""","""base_link""",,,,0.002159371256081569,-5.832911072789637e-08,0.0,,0.0,0.0,-1.437418157189563e-05,0.9999999998966914,"[11.992917938546993, 7.061874947140753e-10, 0.0, 0.0, 0.0, 4.65252770841082e-07, 7.061874947140814e-10, 11.99294379839669, 0.0, 0.0, 0.0, 0.016926738420316844, 0.0, 0.0, 0.00240050069594456, 1.0215028649900502e-22, -2.0906036680940233e-13, 0.0, 0.0, 0.0, 1.0215028649900501e-22, 0.0012005005908424656, -7.172879569358053e-33, 0.0, 0.0, 0.0, -2.0906036680940233e-13, 7.172879569358053e-33, 0.0012005005908424656, 0.0, 4.652527708410811e-07, 0.016926738420316775, 0.0, 0.0, 0.0, 14.527406902253515]",,,,1.0457583454798886e-05,0.0,0.0,,0.0,0.0,-1.2215404488839117e-08,"[0.001413460809905882, 0.0, 0.0, 0.0, 0.0, 0.0, 0.0, 0.001413460809905882, 0.0, 0.0, 0.0, 0.0, 0.0, 0.0, 0.0016005006431810602, 5.526159478224891e-39, -1.1293642729809313e-29, 0.0, 0.0, 0.0, 5.5261594782248913e-39, 0.0004004993765572699, 5.4407877251138297e-48, 0.0, 0.0, 0.0, -1.1293642729809314e-29, 2.2217554894876418e-48, 0.0004004993765572699, 0.0, 0.0, 0.0, 0.0, 0.0, 0.0, 0.0039086586326989746]"
1538840000000,,7160,,1538,800000000,"""odom""","""base_link""",,,,0.0021595804115070176,-5.833512360308469e-08,0.0,,0.0,0.0,-1.437430344534358e-05,0.9999999998966898,"[11.993917253752981, 7.06386599959372e-10, 0.0, 0.0, 0.0, 4.653401207016547e-07, 7.06386599959378e-10, 11.993943120683896, 0.0, 0.0, 0.0, 0.01692977684936062, 0.0, 0.0, 9.991677070991742e-07, 3.5330862953747246e-29, -1.4464238372153035e-19, 0.0, 0.0, 0.0, 3.533086295374724e-29, 9.983374895846988e-07, -1.349757325110342e-38, 0.0, 0.0, 0.0, -1.446423837215302e-19, 2.5777721817762084e-38, 9.983374895846988e-07, 0.0, 4.653401207016538e-07, 0.016929776849360548, 0.0, 0.0, 0.0, 14.528598800257738]",,,,1.0457846961684187e-05,0.0,0.0,,0.0,0.0,-1.2212104600049233e-08,"[0.000469476515777001, 0.0, 0.0, 0.0, 0.0, 0.0, 0.0, 0.000469476515777001, 0.0, 0.0, 0.0, 0.0, 0.0, 0.0, 9.98752339431044e-07, 2.1846791871470628e-38, -8.932760154518221e-29, 0.0, 0.0, 0.0, 2.1846791871470623e-38, 9.950372054846635e-07, -3.2981223188143983e-47, 0.0, 0.0, 0.0, -8.932760154518217e-29, 6.32746234935653e-47, 9.950372054846635e-07, 0.0, 0.0, 0.0, 0.0, 0.0, 0.0, 0.0031348813073510218]"
1538890000000,,7161,,1538,840000000,"""odom""","""base_link""",,,,0.0021599987339076068,-5.8347149789336515e-08,0.0,,0.0,0.0,-1.4374547687435555e-05,0.9999999998966862,"[11.9959199226508, 7.06784935896157e-10, 0.0, 0.0, 0.0, 4.655148454977302e-07, 7.06784935896163e-10, 11.99594580374847, 0.0, 0.0, 0.0, 0.016935854528072537, 0.0, 0.0, 0.0024010007663473705, 2.0400425874882678e-22, -4.176270814344864e-13, 0.0, 0.0, 0.0, 2.0400425874882678e-22, 0.0012009999295546144, -1.2603052709006273e-31, 0.0, 0.0, 0.0, -4.1762708143448636e-13, 1.2603052709006273e-31, 0.0012009999295546144, 0.0, 4.6551484549772926e-07, 0.01693585452807246, 0.0, 0.0, 0.0, 14.531043045264122]",,,,1.0458273076425888e-05,0.0,0.0,,0.0,0.0,-1.2212104600049233e-08,"[0.0015187348172399167, 0.0, 0.0, 0.0, 0.0, 0.0, 0.0, 0.0015187348172399167, 0.0, 0.0, 0.0, 0.0, 0.0, 0.0, 0.001601000347034477, 2.1869977293062644e-38, -8.942240202889232e-29, 0.0, 0.0, 0.0, 2.1869977293062638e-38, 0.0004009950372051209, -3.2981223188143983e-47, 0.0, 0.0, 0.0, -8.942240202889229e-29, 6.32746234935653e-47, 0.0004009950372051209, 0.0, 0.0, 0.0, 0.0, 0.0, 0.0, 0.003934881307350294]"
1538890000000,,7162,,1538,860000000,"""odom""","""base_link""",,,,0.002160207900960414,-5.835316315195962e-08,0.0,,0.0,0.0,-1.437466952575284e-05,0.9999999998966844,"[11.996918955623354, 7.069841657929796e-10, 0.0, 0.0, 0.0, 4.656022248845025e-07, 7.069841657929855e-10, 11.996944843806498, 0.0, 0.0, 0.0, 0.01693889390675927, 0.0, 0.0, 9.99167707099189e-07, 3.532348689272978e-29, -1.4465145437753701e-19, 0.0, 0.0, 0.0, 3.532348689272977e-29, 9.9833748958494e-07, 6.982367304319686e-39, 0.0, 0.0, 0.0, -1.44651454377537e-19, 5.295987461678026e-39, 9.9833748958494e-07, 0.0, 4.6560222488450156e-07, 0.016938893906759192, 0.0, 0.0, 0.0, 14.532234749735643]",,,,1.0458493552023268e-05,0.0,0.0,,0.0,0.0,-1.2208778329183578e-08,"[0.0004714360847701889, 0.0, 0.0, 0.0, 0.0, 0.0, 0.0, 0.0004714360847701889, 0.0, 0.0, 0.0, 0.0, 0.0, 0.0, 9.987523394311206e-07, 2.1842625228431815e-38, -8.922358366618024e-29, 0.0, 0.0, 0.0, 2.184262522843182e-38, 9.950372055036197e-07, 1.6945715820819614e-47, 0.0, 0.0, 0.0, -8.922358366618024e-29, 1.3327654082226429e-47, 9.950372055036197e-07, 0.0, 0.0, 0.0, 0.0, 0.0, 0.0, 0.0031480899330792464]"
1538920000000,,7163,,1538,880000000,"""odom""","""base_link""",,,,0.0021604170738217846,-5.835917673318588e-08,0.0,,0.0,0.0,-1.4374791528385018e-05,0.9999999998966826,"[11.997919364876845, 7.07183438022693e-10, 0.0, 0.0, 0.0, 4.656896153940883e-07, 7.071834380226991e-10, 11.99794526014691, 0.0, 0.0, 0.0, 0.016941933646539325, 0.0, 0.0, 9.991680529447336e-07, 7.046668666731496e-29, -2.8859004589237597e-19, 0.0, 0.0, 0.0, 7.046668666731494e-29, 9.983388669373148e-07, -1.0307660728552721e-37, 0.0, 0.0, 0.0, -2.8859004589237597e-19, 1.5196429601737692e-37, 9.983388669373148e-07, 0.0, 4.656896153940874e-07, 0.01694193364653925, 0.0, 0.0, 0.0, 14.533446511482754]",,,,1.0458731776293e-05,0.0,0.0,,0.0,0.0,-1.220769032733162e-08,"[0.0004973980156744609, 0.0, 0.0, 0.0, 0.0, 0.0, 0.0, 0.0004973980156744609, 0.0, 0.0, 0.0, 0.0, 0.0, 0.0, 9.987531158845001e-07, 1.7294747251384937e-37, -7.065250263514994e-28, 0.0, 0.0, 0.0, 1.7294747251384932e-37, 9.950493833062383e-07, -1.0074680093249853e-45, 0.0, 0.0, 0.0, -7.065250263514989e-28, 1.480900908687778e-45, 9.950493833062383e-07, 0.0, 0.0, 0.0, 0.0, 0.0, 0.0, 0.0031728392944223773]"
1538920000000,,7164,,1538,900000000,"""odom""","""base_link""",,,,0.0021606262510395205,-5.836519049069646e-08,0.0,,0.0,0.0,-1.4374913519266437e-05,0.999999999896681,"[11.998919782439785, 7.073827522213058e-10, 0.0, 0.0, 0.0, 4.6577701592186646e-07, 7.073827522213119e-10, 11.998945684798203, 0.0, 0.0, 0.0, 0.01694497370898422, 0.0, 0.0, 9.99168052944964e-07, 7.046220708709906e-29, -2.885972204592718e-19, 0.0, 0.0, 0.0, 7.046220708709908e-29, 9.983388669411188e-07, 5.021759111010645e-38, 0.0, 0.0, 0.0, -2.885972204592718e-19, -1.3317948557914822e-39, 9.983388669411188e-07, 0.0, 4.6577701592186556e-07, 0.016944973708984144, 0.0, 0.0, 0.0, 14.534658302082685]",,,,1.0458957913485968e-05,0.0,0.0,,0.0,0.0,-1.2206592859547831e-08,"[0.0005040356726901077, 0.0, 0.0, 0.0, 0.0, 0.0, 0.0, 0.0005040356726901077, 0.0, 0.0, 0.0, 0.0, 0.0, 0.0, 9.98753115885699e-07, 1.7294081393453147e-37, -7.048182741982924e-28, 0.0, 0.0, 0.0, 1.7294081393453155e-37, 9.95049383604643e-07, 4.92574249672946e-46, 0.0, 0.0, 0.0, -7.048182741982927e-28, -1.913048574972682e-47, 9.95049383604643e-07, 0.0, 0.0, 0.0, 0.0, 0.0, 0.0, 0.003192615849159615]"
1538960000000,,7165,,1538,940000000,"""odom""","""base_link""",,,,0.0021610446179010485,-5.837721846560778e-08,0.0,,0.0,0.0,-1.4375157651123603e-05,0.9999999998966774,"[12.000922735011812, 7.077815047482165e-10, 0.0, 0.0, 0.0, 4.6595183961114974e-07, 7.077815047482228e-10, 12.000948651551207, 0.0, 0.0, 0.0, 0.01695105456954279, 0.0, 0.0, 0.0024010007666952927, 2.0393424401380533e-22, -4.17672190011079e-13, 0.0, 0.0, 0.0, 2.0393424401380533e-22, 0.0012009999309579562, -3.733524782655512e-32, 0.0, 0.0, 0.0, -4.1767219001107904e-13, 3.733524782655512e-32, 0.0012009999309579562, 0.0, 4.6595183961114884e-07, 0.01695105456954272, 0.0, 0.0, 0.0, 14.53710344930345]",,,,1.0459385171592931e-05,0.0,0.0,,0.0,0.0,-1.2206592859547831e-08,"[0.0015550704975700333, 0.0, 0.0, 0.0, 0.0, 0.0, 0.0, 0.0015550704975700333, 0.0, 0.0, 0.0, 0.0, 0.0, 0.0, 0.0016010003478229434, 1.731236545672032e-37, -7.0556343654858155e-28, 0.0, 0.0, 0.0, 1.7312365456720328e-37, 0.00040099504938324084, 4.92574249672946e-46, 0.0, 0.0, 0.0, -7.055634365485818e-28, -1.913048574972682e-47, 0.00040099504938324084, 0.0, 0.0, 0.0, 0.0, 0.0, 0.0, 0.003992615849158887]"
1538980000000,,7166,,1538,960000000,"""odom""","""base_link""",,,,0.0021612538050256023,-5.838323266046361e-08,0.0,,0.0,0.0,-1.4375279428662756e-05,0.9999999998966757,"[12.001921577577697, 7.07980942331089e-10, 0.0, 0.0, 0.0, 4.660392681113806e-07, 7.079809423310949e-10, 12.001947501209655, 0.0, 0.0, 0.0, 0.016954095527539483, 0.0, 0.0, 9.99167707099189e-07, 3.531107088550596e-29, -1.4466635536057804e-19, 0.0, 0.0, 0.0, 3.531107088550596e-29, 9.9833748958494e-07, 2.728901104190801e-38, 0.0, 0.0, 0.0, -1.4466635536057809e-19, -1.501370766272324e-38, 9.9833748958494e-07, 0.0, 4.660392681113797e-07, 0.01695409552753941, 0.0, 0.0, 0.0, 14.538294458486604]",,,,1.0459565834692217e-05,0.0,0.0,,0.0,0.0,-1.2203218088897723e-08,"[0.0004720616327724812, 0.0, 0.0, 0.0, 0.0, 0.0, 0.0, 0.0004720616327724812, 0.0, 0.0, 0.0, 0.0, 0.0, 0.0, 9.987523394311204e-07, 2.1834947899929733e-38, -8.923276989515564e-29, 0.0, 0.0, 0.0, 2.183494789992974e-38, 9.950372055036201e-07, 6.707063340373418e-47, 0.0, 0.0, 0.0, -8.923276989515565e-29, -3.7033140001871645e-47, 9.950372055036201e-07, 0.0, 0.0, 0.0, 0.0, 0.0, 0.0, 0.0031769974597922346]"
1539020000000,,7167,,1539,0,"""odom""","""base_link""",,,,0.0021616721961882418,-5.8395261640214185e-08,0.0,,0.0,0.0,-1.4375523493024508e-05,0.9999999998966722,"[12.003924322626755, 7.083799426827016e-10, 0.0, 0.0, 0.0, 4.662141501443044e-07, 7.083799426827075e-10, 12.003950260448145, 0.0, 0.0, 0.0, 0.016960178262619967, 0.0, 0.0, 0.0024010007663473705, 2.0388931776276803e-22, -4.176957291915073e-13, 0.0, 0.0, 0.0, 2.03889317762768e-22, 0.0012009999295546146, 5.125025165218721e-32, 0.0, 0.0, 0.0, -4.176957291915073e-13, -5.125025165218721e-32, 0.0012009999295546146, 0.0, 4.6621415014430345e-07, 0.01696017826261989, 0.0, 0.0, 0.0, 14.540739540153794]",,,,1.0459992305934997e-05,0.0,0.0,,0.0,0.0,-1.2203218088897723e-08,"[0.0015214386712352154, 0.0, 0.0, 0.0, 0.0, 0.0, 0.0, 0.0015214386712352154, 0.0, 0.0, 0.0, 0.0, 0.0, 0.0, 0.001601000347034477, 2.1858122117544624e-38, -8.932747246652819e-29, 0.0, 0.0, 0.0, 2.1858122117544632e-38, 0.0004009950372051398, 6.707063340373418e-47, 0.0, 0.0, 0.0, -8.93274724665282e-29, -3.7033140001871645e-47, 0.0004009950372051398, 0.0, 0.0, 0.0, 0.0, 0.0, 0.0, 0.003976997459791507]"
1539020000000,,7168,,1539,20000000,"""odom""","""base_link""",,,,0.002161881397024051,-5.840127638233442e-08,0.0,,0.0,0.0,-1.4375645237995856e-05,0.9999999998966704,"[12.004923313874373, 7.085795046721283e-10, 0.0, 0.0, 0.0, 4.663016080260707e-07, 7.085795046721342e-10, 12.004949258792573, 0.0, 0.0, 0.0, 0.016963220165156577, 0.0, 0.0, 9.99167707099189e-07, 3.530348179111563e-29, -1.4467509852752782e-19, 0.0, 0.0, 0.0, 3.5303481791115634e-29, 9.9833748958494e-07, -1.9570282168075367e-39, 0.0, 0.0, 0.0, -1.4467509852752782e-19, 1.4230435094296922e-38, 9.9833748958494e-07, 0.0, 4.6630160802606976e-07, 0.0169632201651565, 0.0, 0.0, 0.0, 14.541930603740852]",,,,1.0460201569524907e-05,0.0,0.0,,0.0,0.0,-1.219986295335058e-08,"[0.0004714822532202303, 0.0, 0.0, 0.0, 0.0, 0.0, 0.0, 0.0004714822532202303, 0.0, 0.0, 0.0, 0.0, 0.0, 0.0, 9.987523394311206e-07, 2.183025487847608e-38, -8.923816779817528e-29, 0.0, 0.0, 0.0, 2.1830254878476087e-38, 9.950372055036197e-07, -4.9386065295136887e-48, 0.0, 0.0, 0.0, -8.923816779817533e-29, 3.521197558415663e-47, 9.950372055036197e-07, 0.0, 0.0, 0.0, 0.0, 0.0, 0.0, 0.00316920086489363]"
1539070000000,,7169,,1539,40000000,"""odom""","""base_link""",,,,0.0021620906040158627,-5.840729135303647e-08,0.0,,0.0,0.0,-1.4375767150511765e-05,0.9999999998966687,"[12.005923725076917, 7.087791090139371e-10, 0.0, 0.0, 0.0, 4.6638907705633216e-07, 7.08779109013943e-10, 12.005949677093374, 0.0, 0.0, 0.0, 0.016966262429652962, 0.0, 0.0, 9.99168052944724e-07, 7.042672865717615e-29, -2.886371767195949e-19, 0.0, 0.0, 0.0, 7.042672865717612e-29, 9.98338866937296e-07, 7.819224491183551e-38, 0.0, 0.0, 0.0, -2.8863717671959486e-19, -2.93242983361528e-38, 9.98338866937296e-07, 0.0, 4.663890770563312e-07, 0.01696626242965289, 0.0, 0.0, 0.0, 14.543142413164153]",,,,1.0460439001988273e-05,0.0,0.0,,0.0,0.0,-1.2198770907623595e-08,"[0.0004974086597574888, 0.0, 0.0, 0.0, 0.0, 0.0, 0.0, 0.0004974086597574888, 0.0, 0.0, 0.0, 0.0, 0.0, 0.0, 9.98753115884486e-07, 1.728494029554854e-37, -7.066404118592639e-28, 0.0, 0.0, 0.0, 1.7284940295548539e-37, 9.950493833061828e-07, 7.594023289823758e-46, 0.0, 0.0, 0.0, -7.066404118592637e-28, -2.856127945762197e-46, 9.950493833061828e-07, 0.0, 0.0, 0.0, 0.0, 0.0, 0.0, 0.0031897103055193157]"
1539070000000,,7170,,1539,80000000,"""odom""","""base_link""",,,,0.002162509030115745,-5.8419321745403415e-08,0.0,,0.0,0.0,-1.4376011125929892e-05,0.9999999998966651,"[12.007926595703157, 7.091784423782154e-10, 0.0, 0.0, 0.0, 4.665640379581555e-07, 7.091784423782217e-10, 12.007952561920415, 0.0, 0.0, 0.0, 0.016972347701486205, 0.0, 0.0, 0.0024010007666952922, 2.038324209150243e-22, -4.177313300011582e-13, 0.0, 0.0, 0.0, 2.0383242091502428e-22, 0.0012009999309579517, -3.603087080574074e-33, 0.0, 0.0, 0.0, -4.177313300011582e-13, 3.603087080574074e-33, 0.0012009999309579517, 0.0, 4.6656403795815456e-07, 0.016972347701486135, 0.0, 0.0, 0.0, 14.545587760799522]",,,,1.0460866000799168e-05,0.0,0.0,,0.0,0.0,-1.2198770907623595e-08,"[0.001548091967291134, 0.0, 0.0, 0.0, 0.0, 0.0, 0.0, 0.001548091967291134, 0.0, 0.0, 0.0, 0.0, 0.0, 0.0, 0.001601000347822942, 1.7303214261980472e-37, -7.073874848491606e-28, 0.0, 0.0, 0.0, 1.730321426198047e-37, 0.0004009950493829424, 7.594023289823758e-46, 0.0, 0.0, 0.0, -7.073874848491603e-28, -2.856127945762197e-46, 0.0004009950493829424, 0.0, 0.0, 0.0, 0.0, 0.0, 0.0, 0.003989710305518588]"
1539120000000,,7171,,1539,120000000,"""odom""","""base_link""",,,,0.0021629274715280694,-5.843135283189678e-08,0.0,,0.0,0.0,-1.4376254692855674e-05,0.9999999998966617,"[12.009925912541227, 7.095779411865956e-10, 0.0, 0.0, 0.0, 4.6673904344779443e-07, 7.095779411866021e-10, 12.009951892964903, 0.0, 0.0, 0.0, 0.01697843439508607, 0.0, 0.0, 9.99168052944724e-07, 7.040677636265952e-29, -2.8866079479503365e-19, 0.0, 0.0, 0.0, 7.040677636265952e-29, 9.98338866937296e-07, -8.101876240110763e-38, 0.0, 0.0, 0.0, -2.886607947950336e-19, 1.2987686195161139e-37, 9.98338866937296e-07, 0.0, 4.6673904344779353e-07, 0.016978434395086, 0.0, 0.0, 0.0, 14.547990441750494]",,,,1.0461293661702157e-05,0.0,0.0,,0.0,0.0,-1.2194315840386916e-08,"[0.0004975272784628329, 0.0, 0.0, 0.0, 0.0, 0.0, 0.0, 0.0004975272784628329, 0.0, 0.0, 0.0, 0.0, 0.0, 0.0, 9.98753115884486e-07, 1.7280043373248478e-37, -7.0669823353973355e-28, 0.0, 0.0, 0.0, 1.7280043373248474e-37, 9.950493833061828e-07, -7.898725871756218e-46, 0.0, 0.0, 0.0, -7.066982335397332e-28, 1.2633054900290622e-45, 9.950493833061828e-07, 0.0, 0.0, 0.0, 0.0, 0.0, 0.0, 0.0031947788095934336]"
1539150000000,,7172,,1539,140000000,"""odom""","""base_link""",,,,0.0021631366995364795,-5.843736866217421e-08,0.0,,0.0,0.0,-1.4376376636014065e-05,0.9999999998966599,"[12.010926966784892, 7.097777537580678e-10, 0.0, 0.0, 0.0, 4.6682656222799006e-07, 7.097777537580744e-10, 12.010952954313932, 0.0, 0.0, 0.0, 0.016981478260893825, 0.0, 0.0, 0.0012009995676074397, 5.094322512668517e-23, -2.0888074227876127e-13, 0.0, 0.0, 0.0, 5.094322512668517e-23, 0.0006009987368995125, 5.711402761141462e-32, 0.0, 0.0, 0.0, -2.0888074227876127e-13, -5.711402761141462e-32, 0.0006009987368995125, 0.0, 4.6682656222798916e-07, 0.01698147826089376, 0.0, 0.0, 0.0, 14.549211923031388]",,,,1.0461507187719192e-05,0.0,0.0,,0.0,0.0,-1.2194315840386916e-08,"[0.0010163990301413112, 0.0, 0.0, 0.0, 0.0, 0.0, 0.0, 0.0010163990301413112, 0.0, 0.0, 0.0, 0.0, 0.0, 0.0, 0.0008009991518030261, 1.728917776790503e-37, -7.07071800599748e-28, 0.0, 0.0, 0.0, 1.7289177767905027e-37, 0.00020099504938539802, -7.898725871756218e-46, 0.0, 0.0, 0.0, -7.070718005997476e-28, 1.2633054900290622e-45, 0.00020099504938539802, 0.0, 0.0, 0.0, 0.0, 0.0, 0.0, 0.003594778809597617]"
1539200000000,,7173,,1539,180000000,"""odom""","""base_link""",,,,0.0021635551692421153,-5.844940081801223e-08,0.0,,0.0,0.0,-1.4376620413243577e-05,0.9999999998966564,"[12.012929265188617, 7.101775031957244e-10, 0.0, 0.0, 0.0, 4.670016210814465e-07, 7.101775031957313e-10, 12.01295526693266, 0.0, 0.0, 0.0, 0.016987566681465106, 0.0, 0.0, 0.0024010007666952927, 2.0376062812006753e-22, -4.1777445625387266e-13, 0.0, 0.0, 0.0, 2.0376062812006756e-22, 0.0012009999309579562, -2.3654703145021256e-32, 0.0, 0.0, 0.0, -4.177744562538727e-13, 2.3654703145021256e-32, 0.0012009999309579562, 0.0, 4.670016210814456e-07, 0.01698756668146504, 0.0, 0.0, 0.0, 14.551648070401477]",,,,1.046194612136883e-05,0.0,0.0,,0.0,0.0,-1.2193215502032541e-08,"[0.0015550828329808203, 0.0, 0.0, 0.0, 0.0, 0.0, 0.0, 0.0015550828329808203, 0.0, 0.0, 0.0, 0.0, 0.0, 0.0, 0.0016010003478229434, 1.7297634447643018e-37, -7.057362656811149e-28, 0.0, 0.0, 0.0, 1.7297634447643024e-37, 0.0004009950493832409, 1.7573669089932873e-45, 0.0, 0.0, 0.0, -7.057362656811151e-28, -1.2831885610337847e-45, 0.0004009950493832409, 0.0, 0.0, 0.0, 0.0, 0.0, 0.0, 0.004010122766371498]"
1539240000000,,7174,,1539,200000000,"""odom""","""base_link""",,,,0.002163764407547402,-5.8455417096449015e-08,0.0,,0.0,0.0,-1.4376742054814091e-05,0.9999999998966547,"[12.01392813221388, 7.103774393208097e-10, 0.0, 0.0, 0.0, 4.6708916734795825e-07, 7.103774393208165e-10, 12.013954141067504, 0.0, 0.0, 0.0, 0.016990611425813897, 0.0, 0.0, 9.99167707099189e-07, 3.528099841746735e-29, -1.4470176586695014e-19, 0.0, 0.0, 0.0, 3.5280998417467344e-29, 9.9833748958494e-07, 6.333926471790972e-38, 0.0, 0.0, 0.0, -1.447017658669501e-19, -5.107141341806181e-38, 9.9833748958494e-07, 0.0, 4.6708916734795735e-07, 0.01699061142581383, 0.0, 0.0, 0.0, 14.552838585614438]",,,,1.046212596138217e-05,0.0,0.0,,0.0,0.0,-1.2189841925654267e-08,"[0.0004720601915371149, 0.0, 0.0, 0.0, 0.0, 0.0, 0.0, 0.0004720601915371149, 0.0, 0.0, 0.0, 0.0, 0.0, 0.0, 9.987523394311204e-07, 2.181635229374046e-38, -8.925461172263535e-29, 0.0, 0.0, 0.0, 2.1816352293740462e-38, 9.950372055036201e-07, 1.5646553265908698e-46, 0.0, 0.0, 0.0, -8.925461172263539e-29, -1.2633325458907669e-46, 9.950372055036201e-07, 0.0, 0.0, 0.0, 0.0, 0.0, 0.0, 0.003185716196712356]"
1539240000000,,7175,,1539,240000000,"""odom""","""base_link""",,,,0.002164182901116351,-5.84674502446375e-08,0.0,,0.0,0.0,-1.4376985851652579e-05,0.9999999998966511,"[12.015930852323413, 7.107774369636841e-10, 0.0, 0.0, 0.0, 4.6726428501370494e-07, 7.107774369636909e-10, 12.015956875400509, 0.0, 0.0, 0.0, 0.016996701736994996, 0.0, 0.0, 0.0024010007663473705, 2.0371568075587786e-22, -4.177979652855096e-13, 0.0, 0.0, 0.0, 2.0371568075587786e-22, 0.0012009999295546146, -3.5256389189532775e-32, 0.0, 0.0, 0.0, -4.1779796528550954e-13, 3.5256389189532775e-32, 0.0012009999295546146, 0.0, 4.672642850137041e-07, 0.01699670173699493, 0.0, 0.0, 0.0, 14.555284119963014]",,,,1.0462552494735594e-05,0.0,0.0,,0.0,0.0,-1.2189841925654267e-08,"[0.0015214192163980828, 0.0, 0.0, 0.0, 0.0, 0.0, 0.0, 0.0015214192163980828, 0.0, 0.0, 0.0, 0.0, 0.0, 0.0, 0.001601000347034477, 2.1839506775168368e-38, -8.934933747469868e-29, 0.0, 0.0, 0.0, 2.183950677516837e-38, 0.0004009950372051398, 1.5646553265908698e-46, 0.0, 0.0, 0.0, -8.934933747469872e-29, -1.2633325458907669e-46, 0.0004009950372051398, 0.0, 0.0, 0.0, 0.0, 0.0, 0.0, 0.003985716196711628]"
1539280000000,,7176,,1539,260000000,"""odom""","""base_link""",,,,0.002164392153157091,-5.847346707094562e-08,0.0,,0.0,0.0,-1.437710746162245e-05,0.9999999998966493,"[12.016929869426814, 7.109774977004394e-10, 0.0, 0.0, 0.0, 4.673518606838615e-07, 7.109774977004461e-10, 12.016955899617743, 0.0, 0.0, 0.0, 0.016999747426545506, 0.0, 0.0, 9.99167707099189e-07, 3.527342288048257e-29, -1.4471050888735067e-19, 0.0, 0.0, 0.0, 3.527342288048257e-29, 9.9833748958494e-07, 2.0483298495278474e-38, 0.0, 0.0, 0.0, -1.4471050888735067e-19, -8.21734027236018e-39, 9.9833748958494e-07, 0.0, 4.6735186068386066e-07, 0.016999747426545444, 0.0, 0.0, 0.0, 14.556474834805874]",,,,1.0462761800085649e-05,0.0,0.0,,0.0,0.0,-1.2186493562793733e-08,"[0.000471480384413798, 0.0, 0.0, 0.0, 0.0, 0.0, 0.0, 0.000471480384413798, 0.0, 0.0, 0.0, 0.0, 0.0, 0.0, 9.987523394311206e-07, 2.1811667655636061e-38, -8.926000953641732e-29, 0.0, 0.0, 0.0, 2.181166765563607e-38, 9.950372055036197e-07, 5.012769470560141e-47, 0.0, 0.0, 0.0, -8.926000953641738e-29, -1.9911352359101144e-47, 9.950372055036197e-07, 0.0, 0.0, 0.0, 0.0, 0.0, 0.0, 0.00317355534012831]"
1539300000000,,7177,,1539,280000000,"""odom""","""base_link""",,,,0.0021646014113475584,-5.8479484125636777e-08,0.0,,0.0,0.0,-1.4377229240161384e-05,0.9999999998966477,"[12.017930281951108, 7.111776008613138e-10, 0.0, 0.0, 0.0, 4.674394475331112e-07, 7.111776008613201e-10, 12.017956319257317, 0.0, 0.0, 0.0, 0.01700279347907945, 0.0, 0.0, 9.99168052944724e-07, 7.036676917008252e-29, -2.8870782303453177e-19, 0.0, 0.0, 0.0, 7.036676917008252e-29, 9.98338866937296e-07, -5.20540759822868e-38, 0.0, 0.0, 0.0, -2.887078230345318e-19, 1.0089236830519993e-37, 9.98338866937296e-07, 0.0, 4.674394475331104e-07, 0.017002793479079386, 0.0, 0.0, 0.0, 14.557686669234643]",,,,1.0462999302887122e-05,0.0,0.0,,0.0,0.0,-1.218540437063661e-08,"[0.0004974066229474419, 0.0, 0.0, 0.0, 0.0, 0.0, 0.0, 0.0004974066229474419, 0.0, 0.0, 0.0, 0.0, 0.0, 0.0, 9.98753115884486e-07, 1.7270224346440534e-37, -7.068133678923378e-28, 0.0, 0.0, 0.0, 1.7270224346440522e-37, 9.950493833061828e-07, -5.140139584301108e-46, 0.0, 0.0, 0.0, -7.068133678923376e-28, 9.859379028673712e-46, 9.950493833061828e-07, 0.0, 0.0, 0.0, 0.0, 0.0, 0.0, 0.003193187588199881]"
